latitude, longitude, altitude, quaternion, rollrate, pitchrate, yawrate, timeStamp
149.137088, -35.3044602, 579219, [0.5399199724197388, 0.14627523720264435, -0.05499415844678879, -0.8270826935768127], 0.0941699668765, -0.00628192769364, 0.033924523741, 1555562689.55
149.1370827, -35.3044626, 579254, [0.539975106716156, 0.14616520702838898, -0.05478706583380699, -0.8270797729492188], -0.110101871192, 0.0139452684671, 0.0323270112276, 1555562689.55
149.1370827, -35.3044626, 579254, [0.5400007367134094, 0.14615967869758606, -0.05476181581616402, -0.8270657658576965], 0.0582722872496, 0.00165033480152, 0.033171929419, 1555562689.55
149.1370827, -35.3044626, 579254, [0.5400055050849915, 0.1462225764989853, -0.0548364520072937, -0.8270465731620789], -0.0294314399362, 0.0124710462987, 0.0343843325973, 1555562689.55
149.1370827, -35.3044626, 579254, [0.5400288105010986, 0.14625895023345947, -0.05488559231162071, -0.8270217180252075], 0.124689586461, 0.00217120442539, 0.0366607643664, 1555562689.55
149.1370827, -35.3044626, 579254, [0.5400617718696594, 0.1462148129940033, -0.05485181882977486, -0.8270101547241211], -0.126871958375, 0.0218377448618, 0.0314916074276, 1555562689.56
149.1370827, -35.3044626, 579254, [0.5400662422180176, 0.14630194008350372, -0.05495550110936165, -0.8269849419593811], 0.146646022797, 0.00445882044733, 0.028208784759, 1555562689.58
149.1370827, -35.3044626, 579254, [0.5401137471199036, 0.1463281661272049, -0.055071376264095306, -0.8269415497779846], -0.186340734363, 0.0230435952544, 0.0290886051953, 1555562689.64
149.1370827, -35.3044626, 579254, [0.5401461720466614, 0.14634239673614502, -0.05507238954305649, -0.8269177675247192], 0.171787858009, 0.0173500850797, 0.0342330262065, 1555562689.64
149.1370827, -35.3044626, 579254, [0.5401133894920349, 0.14661966264247894, -0.05561116337776184, -0.8268540501594543], -0.0322055928409, 0.0264329314232, 0.0358406528831, 1555562689.64
149.1370827, -35.3044626, 579254, [0.5402294397354126, 0.14642854034900665, -0.05528679117560387, -0.826833963394165], 0.0167053863406, 0.0193854998797, 0.0310365092009, 1555562689.64
149.1370827, -35.3044626, 579254, [0.5402171015739441, 0.1467013955116272, -0.055841799825429916, -0.8267562985420227], -0.00454789027572, 0.00187137117609, 0.0375022441149, 1555562689.64
149.1370827, -35.3044626, 579254, [0.5403147339820862, 0.14654037356376648, -0.05553510785102844, -0.8267416954040527], -0.0388136692345, 0.0191703401506, 0.0386072099209, 1555562689.65
149.1370827, -35.3044626, 579254, [0.5402864217758179, 0.14681079983711243, -0.05603385716676712, -0.8266785740852356], 0.0798947587609, 0.0042630052194, 0.0354204587638, 1555562689.67
149.1370827, -35.3044626, 579254, [0.5403991341590881, 0.146650031208992, -0.05577138066291809, -0.8266512155532837], 0.00407111877576, 0.0100505920127, 0.0342813618481, 1555562689.73
149.1370827, -35.3044626, 579254, [0.5403940677642822, 0.14680878818035126, -0.05604717507958412, -0.8266075849533081], -0.00738781364635, 0.00931333936751, 0.0337249040604, 1555562689.73
149.1370775, -35.3044649, 579233, [0.5404404401779175, 0.146749347448349, -0.05594465881586075, -0.8265948295593262], 0.0120104290545, 0.00538061652333, 0.034265846014, 1555562689.73
149.1370775, -35.3044649, 579233, [0.5404353141784668, 0.14683370292186737, -0.056086502969264984, -0.8265735507011414], 0.0146749131382, 5.45540824533e-05, 0.0292154476047, 1555562689.73
149.1370775, -35.3044649, 579233, [0.5404708385467529, 0.14677104353904724, -0.05594006925821304, -0.8265713453292847], 0.0368832983077, 0.0146154016256, 0.0290113519877, 1555562689.73
149.1370775, -35.3044649, 579233, [0.5404489636421204, 0.1468583345413208, -0.05609756335616112, -0.8265595436096191], -0.0059244739823, 0.0100138466805, 0.0262240935117, 1555562689.74
149.1370775, -35.3044649, 579233, [0.5404888987541199, 0.14677859842777252, -0.05592986196279526, -0.8265588879585266], -0.0300844684243, 0.0163024328649, 0.0283023491502, 1555562689.76
149.1370775, -35.3044649, 579233, [0.540449321269989, 0.1468493491411209, -0.056085702031850815, -0.826561689376831], 0.022076420486, -0.00149246584624, 0.0214071422815, 1555562689.82
149.1370775, -35.3044649, 579233, [0.5404912233352661, 0.14670337736606598, -0.05591961368918419, -0.8265715837478638], -0.0999141186476, 0.0183589719236, 0.0237885098904, 1555562689.82
149.1370775, -35.3044649, 579233, [0.5404723286628723, 0.14663709700107574, -0.05586880072951317, -0.8265990614891052], 0.0826627165079, 0.00206098146737, 0.0217961259186, 1555562689.82
149.1370775, -35.3044649, 579233, [0.5404006242752075, 0.14682108163833618, -0.05635233223438263, -0.8265805244445801], -0.072245746851, 0.00426445063204, 0.0224090181291, 1555562689.82
149.1370775, -35.3044649, 579233, [0.5404609441757202, 0.14641831815242767, -0.05580699071288109, -0.8266494274139404], 0.155599966645, -0.0154078062624, 0.0173855256289, 1555562689.82
149.1370775, -35.3044649, 579233, [0.5403969287872314, 0.14656968414783478, -0.056261878460645676, -0.8266335725784302], -0.107184611261, -0.0016417496372, 0.0262991711497, 1555562689.84
149.1370775, -35.3044649, 579233, [0.540501058101654, 0.14591825008392334, -0.05536676570773125, -0.8267412185668945], -0.0679837018251, -0.00335026439279, 0.013005649671, 1555562689.85
149.1370775, -35.3044649, 579233, [0.5403181314468384, 0.1463540494441986, -0.05637556314468384, -0.8267156481742859], 0.141127720475, -0.0179206579924, 0.0269871987402, 1555562689.91
149.1370775, -35.3044649, 579233, [0.5405062437057495, 0.14541637897491455, -0.05510410666465759, -0.826843798160553], -0.102591648698, -0.00869032554328, 0.0144638586789, 1555562689.91
149.1370775, -35.3044649, 579233, [0.5403074622154236, 0.14580342173576355, -0.05609375238418579, -0.8268389701843262], 0.141741976142, -0.0215578805655, 0.0235708095133, 1555562689.91
149.1370775, -35.3044649, 579233, [0.5404185652732849, 0.14514167606830597, -0.05520245432853699, -0.8269429206848145], -0.218922406435, 0.0115949194878, 0.0113780498505, 1555562689.91
149.137073, -35.3044676, 579193, [0.5402865409851074, 0.14529219269752502, -0.05583183094859123, -0.8269604444503784], 0.102834165096, -0.033493719995, 0.0242850184441, 1555562689.91
149.137073, -35.3044676, 579193, [0.5403699278831482, 0.14479012787342072, -0.05518340691924095, -0.8270374536514282], -0.179147288203, -0.000441403593868, 0.0175942964852, 1555562689.93
149.137073, -35.3044676, 579193, [0.540269136428833, 0.14492599666118622, -0.05561111494898796, -0.8270509243011475], 0.174702450633, -0.0141809359193, 0.0219044610858, 1555562689.94
149.137073, -35.3044676, 579193, [0.5402758717536926, 0.1448209136724472, -0.055585868656635284, -0.8270666599273682], -0.124515943229, 0.0137577131391, 0.01781825535, 1555562690.0
149.137073, -35.3044676, 579193, [0.5401825308799744, 0.1448369026184082, -0.055914007127285004, -0.8271026611328125], 0.14430077374, -0.0163679532707, 0.0256318449974, 1555562690.0
149.137073, -35.3044676, 579193, [0.5402482151985168, 0.14455288648605347, -0.05553308501839638, -0.8271351456642151], -0.189966276288, 0.0106052719057, 0.0149522684515, 1555562690.0
149.137073, -35.3044676, 579193, [0.5401668548583984, 0.1446370929479599, -0.05580944940447807, -0.8271548748016357], 0.218880966306, -0.0189771950245, 0.0148384477943, 1555562690.0
149.137073, -35.3044676, 579193, [0.5401368141174316, 0.14473839104175568, -0.05606580525636673, -0.8271394371986389], -0.159752994776, 0.0159042812884, 0.0160374827683, 1555562690.0
149.137073, -35.3044676, 579193, [0.5401172637939453, 0.14461097121238708, -0.055877845734357834, -0.8271872401237488], 0.169787541032, -0.00518220802769, 0.0161900985986, 1555562690.02
149.137073, -35.3044676, 579193, [0.5401017069816589, 0.1446142941713333, -0.05588603764772415, -0.8271963000297546], -0.143362224102, 0.0139666199684, 0.011107461527, 1555562690.03
149.137073, -35.3044676, 579193, [0.5400959849357605, 0.14456242322921753, -0.055766716599464417, -0.8272170424461365], 0.107081353664, 0.00779352197424, 0.0171671696007, 1555562690.09
149.137073, -35.3044676, 579193, [0.5400742888450623, 0.14456291496753693, -0.055692095309495926, -0.8272361755371094], -0.147113919258, 0.0293362941593, 0.0176735185087, 1555562690.09
149.137073, -35.3044676, 579193, [0.5400335788726807, 0.14464952051639557, -0.05579507350921631, -0.8272408246994019], 0.123662233353, 0.00254249898717, 0.0180249456316, 1555562690.09
149.137073, -35.3044676, 579193, [0.5400139689445496, 0.1447117179632187, -0.055810049176216125, -0.8272415995597839], -0.051531907171, 0.017261903733, 0.0184536967427, 1555562690.09
149.137073, -35.3044676, 579193, [0.5400052070617676, 0.14472801983356476, -0.055740389972925186, -0.8272492289543152], 0.0307563636452, 0.0150522133335, 0.0206827186048, 1555562690.09
149.1370678, -35.3044691, 579194, [0.5400019288063049, 0.1447683721780777, -0.05571557208895683, -0.8272460103034973], -0.0396388694644, 0.0191725995392, 0.0228310935199, 1555562690.11
149.1370678, -35.3044691, 579194, [0.5399816632270813, 0.1448058784008026, -0.055705588310956955, -0.8272533416748047], 0.0298074241728, 0.0122465789318, 0.0178393069655, 1555562690.12
149.1370678, -35.3044691, 579194, [0.5399580597877502, 0.14490777254104614, -0.05581096559762955, -0.8272437453269958], -0.0277972985059, 0.0209352448583, 0.0237933024764, 1555562690.18
149.1370678, -35.3044691, 579194, [0.5399633646011353, 0.1448443979024887, -0.05570434778928757, -0.8272585272789001], -0.000530011253431, 0.0108839999884, 0.0214832741767, 1555562690.18
149.1370678, -35.3044691, 579194, [0.539895236492157, 0.14492498338222504, -0.05590669810771942, -0.8272753357887268], 0.0130643481389, 0.00572087941691, 0.0225879978389, 1555562690.18
149.1370678, -35.3044691, 579194, [0.5399231314659119, 0.14477649331092834, -0.055731259286403656, -0.8272950053215027], -0.0262578390539, 0.00374906184152, 0.0197363831103, 1555562690.18
149.1370678, -35.3044691, 579194, [0.539842426776886, 0.1449248194694519, -0.05609963834285736, -0.8272967338562012], 0.0823381915689, -0.00847433134913, 0.0219892412424, 1555562690.18
149.1370678, -35.3044691, 579194, [0.539862871170044, 0.1447732150554657, -0.05594172328710556, -0.8273205757141113], -0.070625975728, 0.0122157558799, 0.0219537578523, 1555562690.2
149.1370678, -35.3044691, 579194, [0.539779007434845, 0.14481082558631897, -0.05624379590153694, -0.8273482322692871], -0.000724379729945, 0.000440616160631, 0.0207694806159, 1555562690.22
149.1370678, -35.3044691, 579194, [0.539734423160553, 0.1447342485189438, -0.056276511400938034, -0.8273885250091553], 0.0445086471736, -0.010660553351, 0.0153588019311, 1555562690.28
149.1370678, -35.3044691, 579194, [0.5396518707275391, 0.14473849534988403, -0.05650288611650467, -0.8274261355400085], -0.0428544990718, -0.00330273597501, 0.0135347573087, 1555562690.28
149.1370678, -35.3044691, 579194, [0.5396392941474915, 0.14445814490318298, -0.05618736147880554, -0.8275049328804016], -0.0135741345584, 0.00166046479717, 0.00946900621057, 1555562690.28
149.1370678, -35.3044691, 579194, [0.5395101308822632, 0.1444745659828186, -0.05648718774318695, -0.8275657892227173], -0.0908298641443, 0.00291060563177, 0.00719229970127, 1555562690.28
149.1370678, -35.3044691, 579194, [0.5394713282585144, 0.1443198025226593, -0.05639151111245155, -0.8276245594024658], 0.0529026314616, -0.00681820325553, 0.0147967785597, 1555562690.28
149.1370678, -35.3044691, 579194, [0.5394266247749329, 0.1441831737756729, -0.05634823814034462, -0.8276804685592651], -0.0882624685764, 0.00191413937137, 0.00763654150069, 1555562690.29
149.1370678, -35.3044691, 579194, [0.5392442345619202, 0.14437036216259003, -0.05686335265636444, -0.8277316093444824], 0.126680135727, -0.00990494713187, 0.0143064614385, 1555562690.31
149.1370637, -35.304471, 579152, [0.5392364263534546, 0.14408324658870697, -0.0564863495528698, -0.8278124928474426], -0.187198966742, 0.00689099635929, 0.00811602920294, 1555562690.37
149.1370637, -35.304471, 579152, [0.5391886234283447, 0.14397262036800385, -0.056359827518463135, -0.8278714418411255], 0.101895943284, -0.000620898790658, 0.0110283065587, 1555562690.37
149.1370637, -35.304471, 579152, [0.5390177369117737, 0.1441492736339569, -0.05680830404162407, -0.8279213309288025], -0.0717592015862, 0.00140255270526, 0.00868656672537, 1555562690.37
149.1370637, -35.304471, 579152, [0.5389934182167053, 0.14398592710494995, -0.05654020980000496, -0.8279838562011719], -0.0106754899025, 0.00386762572452, 0.0084734596312, 1555562690.37
149.1370637, -35.304471, 579152, [0.5388709306716919, 0.14411702752113342, -0.05680740252137184, -0.8280225992202759], 0.0483828298748, -0.00020285975188, 0.00851989910007, 1555562690.37
149.1370637, -35.304471, 579152, [0.5387911200523376, 0.1439824104309082, -0.056675802916288376, -0.8281068801879883], -0.0723303332925, 0.0130344415084, 0.00694229314104, 1555562690.38
149.1370637, -35.304471, 579152, [0.5386826395988464, 0.1440943330526352, -0.05690428614616394, -0.8281422853469849], 0.0770477950573, -0.000160024501383, 0.00919601600617, 1555562690.4
149.1370637, -35.304471, 579152, [0.5386438965797424, 0.14396846294403076, -0.05674048140645027, -0.82820063829422], -0.0788951218128, 0.00761711550876, 0.00610790541396, 1555562690.46
149.1370637, -35.304471, 579152, [0.5385378003120422, 0.14401814341545105, -0.056886907666921616, -0.8282509446144104], 0.0534636415541, -0.000391462352127, 0.00601132074371, 1555562690.46
149.1370637, -35.304471, 579152, [0.5385163426399231, 0.14373578131198883, -0.05649134889245033, -0.8283411860466003], -0.0811929628253, 0.0107541335747, 0.011917530559, 1555562690.46
149.1370637, -35.304471, 579152, [0.5384302735328674, 0.14375770092010498, -0.05662750080227852, -0.8283839821815491], 0.0604641102254, -0.00315354252234, 0.00859168730676, 1555562690.46
149.1370637, -35.304471, 579152, [0.5383538007736206, 0.14370447397232056, -0.05667627602815628, -0.8284395337104797], -0.0628676265478, 0.00429715542123, 0.00996856577694, 1555562690.46
149.1370637, -35.304471, 579152, [0.5383678674697876, 0.14342361688613892, -0.05631864070892334, -0.8285033702850342], -0.0619956180453, 0.0053745363839, 0.0136862341315, 1555562690.47
149.1370637, -35.304471, 579152, [0.5382599234580994, 0.1434386670589447, -0.05655166506767273, -0.8285551071166992], 0.0540210865438, -0.0103722047061, 0.0165484026074, 1555562690.49
149.1370637, -35.304471, 579152, [0.5382579565048218, 0.14322805404663086, -0.05628928169608116, -0.8286106586456299], -0.103711679578, 0.00503403320909, 0.0141546595842, 1555562690.55
149.1370605, -35.3044729, 579096, [0.5381953716278076, 0.14324241876602173, -0.05642739310860634, -0.8286395072937012], 0.0686586722732, -0.0123957004398, 0.0202674586326, 1555562690.55
149.1370605, -35.3044729, 579096, [0.538158118724823, 0.14312505722045898, -0.056335195899009705, -0.8286901712417603], -0.0426338352263, 0.00349159399047, 0.0133987544104, 1555562690.55
149.1370605, -35.3044729, 579096, [0.538068950176239, 0.14328481256961823, -0.05667360872030258, -0.8286974430084229], 0.0597343742847, -0.00755312666297, 0.0192653015256, 1555562690.55
149.1370605, -35.3044729, 579096, [0.5380791425704956, 0.14317306876182556, -0.05648152157664299, -0.8287233114242554], -0.067374587059, 0.00461773807183, 0.0172577481717, 1555562690.55
149.1370605, -35.3044729, 579096, [0.5379892587661743, 0.14331485331058502, -0.05678434297442436, -0.828736424446106], 0.113774068654, -0.00676732696593, 0.0146146509796, 1555562690.57
149.1370605, -35.3044729, 579096, [0.5379204154014587, 0.143390953540802, -0.056976571679115295, -0.828754723072052], -0.0478951223195, 0.0048532243818, 0.015368245542, 1555562690.58
149.1370605, -35.3044729, 579096, [0.5378714203834534, 0.14340953528881073, -0.05702595040202141, -0.828779935836792], 0.0665679946542, -0.000211969483644, 0.0179965645075, 1555562690.64
149.1370605, -35.3044729, 579096, [0.5377963185310364, 0.14354395866394043, -0.057240281254053116, -0.8287906050682068], 0.00562075758353, 0.00839949771762, 0.012466641143, 1555562690.64
149.1370605, -35.3044729, 579096, [0.5377184748649597, 0.14359308779239655, -0.05737103149294853, -0.8288235068321228], 0.0528525300324, -0.00260519701988, 0.0163129344583, 1555562690.64
149.1370605, -35.3044729, 579096, [0.537651538848877, 0.14357103407382965, -0.057360902428627014, -0.828871488571167], -0.0585674196482, 0.015585090965, 0.0151249486953, 1555562690.64
149.1370605, -35.3044729, 579096, [0.537530243396759, 0.14365972578525543, -0.05759144574403763, -0.8289188146591187], 0.101358659565, -0.00695709744468, 0.010827884078, 1555562690.64
149.1370605, -35.3044729, 579096, [0.5374258756637573, 0.1437329649925232, -0.0577540397644043, -0.828962504863739], -0.0359380245209, 0.00983259268105, 0.0111182704568, 1555562690.66
149.1370605, -35.3044729, 579096, [0.5373792052268982, 0.14354689419269562, -0.057536911219358444, -0.8290401697158813], -0.0101427873597, -0.0019427544903, 0.0074043427594, 1555562690.67
149.1370605, -35.3044729, 579096, [0.5372028946876526, 0.14362739026546478, -0.057854462414979935, -0.8291182518005371], -0.00791012588888, -0.00784227624536, 0.00582270557061, 1555562690.73
149.1370605, -35.3044729, 579096, [0.5371080636978149, 0.14352956414222717, -0.057823214679956436, -0.8291987776756287], -0.000966180232354, -0.0115250721574, 0.00300399400294, 1555562690.73
149.1370573, -35.3044742, 579074, [0.5369870066642761, 0.1435697078704834, -0.05800901725888252, -0.8292573094367981], 0.00951703824103, -0.00757815502584, 0.00609298003837, 1555562690.73
149.1370573, -35.3044742, 579074, [0.5368781685829163, 0.1434852033853531, -0.05798771604895592, -0.8293439745903015], 0.00997695047408, -0.010289343074, -0.000713327433914, 1555562690.73
149.1370573, -35.3044742, 579074, [0.5366922616958618, 0.14356254041194916, -0.058305248618125916, -0.8294285535812378], -0.0290031954646, -0.000845033675432, 0.00444309366867, 1555562690.73
149.1370573, -35.3044742, 579074, [0.5365847945213318, 0.14344866573810577, -0.05820097029209137, -0.8295251131057739], 0.0473367832601, -0.00117344036698, 0.000933874864131, 1555562690.75
149.1370573, -35.3044742, 579074, [0.5363922119140625, 0.14364032447338104, -0.05861448124051094, -0.8295873999595642], 0.0344190746546, -0.000719913747162, -0.000556281302124, 1555562690.76
149.1370573, -35.3044742, 579074, [0.5362379550933838, 0.14356866478919983, -0.0586138516664505, -0.8296996355056763], 0.019747659564, 0.00240602949634, 0.00211663870141, 1555562690.78
149.1370573, -35.3044742, 579074, [0.5360702872276306, 0.14367349445819855, -0.058823585510253906, -0.8297749757766724], 0.0461832508445, 0.00195166887715, -0.00401441939175, 1555562690.82
149.1370573, -35.3044742, 579074, [0.5358843803405762, 0.14380671083927155, -0.059124384075403214, -0.8298504948616028], 0.0545258745551, -0.00425981217995, -0.000952849630266, 1555562690.82
149.1370573, -35.3044742, 579074, [0.5357006192207336, 0.1437661051750183, -0.0590733103454113, -0.8299799561500549], -0.0423059947789, 0.0122117139399, -0.00815839413553, 1555562690.82
149.1370573, -35.3044742, 579074, [0.535515546798706, 0.14390799403190613, -0.059303101152181625, -0.8300583958625793], 0.0873936191201, 2.16397456825e-05, -0.00683134421706, 1555562690.82
149.1370573, -35.3044742, 579074, [0.5353366732597351, 0.14399152994155884, -0.05946226790547371, -0.8301478028297424], -0.00684485444799, 0.00573119148612, -0.00584389828146, 1555562690.84
149.1370573, -35.3044742, 579074, [0.5351276397705078, 0.14399871230125427, -0.05952813848853111, -0.8302766680717468], 0.0230326466262, 7.09416344762e-05, -0.00420429930091, 1555562690.85
149.1370573, -35.3044742, 579074, [0.534957766532898, 0.14397968351840973, -0.059523556381464005, -0.8303896188735962], -0.0274905953556, -0.00342598068528, -0.0094870980829, 1555562690.91
149.1370573, -35.3044742, 579074, [0.5347590446472168, 0.14408068358898163, -0.059740617871284485, -0.8304845094680786], 0.0318431034684, -0.00763160083443, -0.0112085836008, 1555562690.91
149.1370573, -35.3044742, 579074, [0.5346201658248901, 0.14398136734962463, -0.059619009494781494, -0.8305999636650085], -0.0268421452492, 0.00596778001636, -0.010988834314, 1555562690.91
149.1370573, -35.3044742, 579074, [0.5343461036682129, 0.14407025277614594, -0.05989411473274231, -0.8307411074638367], 0.00278792763129, -0.00302376109175, -0.00891887303442, 1555562690.91
149.1370554, -35.3044763, 578972, [0.5341936349868774, 0.1439853012561798, -0.05984024330973625, -0.8308578133583069], 0.00835126172751, -0.00752555159852, -0.0068745422177, 1555562690.91
149.1370554, -35.3044763, 578972, [0.534028947353363, 0.143906831741333, -0.05982879549264908, -0.8309780955314636], -0.0354182682931, -0.00686803273857, -0.0125893121585, 1555562690.93
149.1370554, -35.3044763, 578972, [0.5337925553321838, 0.14400483667850494, -0.06013951823115349, -0.83109050989151], 0.0857548266649, -0.0119819063693, -0.0103060808033, 1555562690.95
149.1370554, -35.3044763, 578972, [0.5335992574691772, 0.1437978297472, -0.05999474227428436, -0.8312609195709229], -0.0851324647665, -0.00901887658983, -0.01199742686, 1555562691.01
149.1370554, -35.3044763, 578972, [0.5333986878395081, 0.1437695175409317, -0.06018201634287834, -0.8313810229301453], 0.0600385852158, -0.0204593408853, -0.00909702479839, 1555562691.01
149.1370554, -35.3044763, 578972, [0.5332158207893372, 0.14368541538715363, -0.06025102362036705, -0.8315078616142273], -0.0214455127716, -0.0147214625031, -0.0111723802984, 1555562691.01
149.1370554, -35.3044763, 578972, [0.5329864025115967, 0.1434936225414276, -0.060232196003198624, -0.8316893577575684], -0.00857696216553, -0.0107296518981, -0.014409545809, 1555562691.01
149.1370554, -35.3044763, 578972, [0.5327941179275513, 0.14336590468883514, -0.060271598398685455, -0.831831693649292], -0.00157078693155, -0.00937831681222, -0.0173242669553, 1555562691.01
149.1370554, -35.3044763, 578972, [0.5325972437858582, 0.1432887762784958, -0.06042059510946274, -0.8319602608680725], 0.0218689981848, -0.0197163112462, -0.0129206562415, 1555562691.02
149.1370554, -35.3044763, 578972, [0.5324159264564514, 0.14292341470718384, -0.060137588530778885, -0.832159698009491], -0.0379359684885, -0.013319930993, -0.0144010260701, 1555562691.04
149.1370554, -35.3044763, 578972, [0.5321711301803589, 0.14299394190311432, -0.060528602451086044, -0.8322758078575134], 0.0445533506572, -0.0181929282844, -0.013191441074, 1555562691.1
149.1370554, -35.3044763, 578972, [0.5320464372634888, 0.1426863968372345, -0.06024292856454849, -0.8324289917945862], -0.086811825633, -0.00834080483764, -0.0113054988906, 1555562691.1
149.1370554, -35.3044763, 578972, [0.5318583846092224, 0.14264383912086487, -0.06040952354669571, -0.8325443267822266], 0.0554571449757, -0.0176301300526, -0.0117179853842, 1555562691.1
149.1370554, -35.3044763, 578972, [0.531629204750061, 0.14252465963363647, -0.060504280030727386, -0.8327043056488037], -0.00724728871137, -0.0105059612542, -0.00573089811951, 1555562691.1
149.1370527, -35.3044778, 578947, [0.5314847230911255, 0.14238430559635162, -0.060486167669296265, -0.832821786403656], -0.0672157332301, -0.00780821125954, -0.00723002525046, 1555562691.1
149.1370527, -35.3044778, 578947, [0.5312818884849548, 0.14237543940544128, -0.060675110667943954, -0.8329390287399292], 0.0694250687957, -0.0135581195354, -0.00882152840495, 1555562691.11
149.1370527, -35.3044778, 578947, [0.531119167804718, 0.1423596292734146, -0.06085168570280075, -0.8330326080322266], -0.0546733103693, -0.00667919497937, -0.00217408500612, 1555562691.13
149.1370527, -35.3044778, 578947, [0.5309438109397888, 0.14215640723705292, -0.06077561154961586, -0.8331845998764038], 0.0885066464543, -0.0148919839412, -0.00374268647283, 1555562691.15
149.1370527, -35.3044778, 578947, [0.5307608842849731, 0.1422176957130432, -0.061051223427057266, -0.8332705497741699], -0.0208294056356, -0.0131119098514, 1.6326084733e-06, 1555562691.19
149.1370527, -35.3044778, 578947, [0.5306723713874817, 0.14195111393928528, -0.060736507177352905, -0.8333954215049744], -0.032199241221, -0.0138525012881, -0.00319975940511, 1555562691.19
149.1370527, -35.3044778, 578947, [0.5304201245307922, 0.1420409381389618, -0.06114763393998146, -0.8335105180740356], -0.0392828434706, -0.00643554562703, -0.00415696436539, 1555562691.19
149.1370527, -35.3044778, 578947, [0.5303189754486084, 0.14181898534297943, -0.060864631086587906, -0.8336334228515625], 0.0316507257521, -0.00442795362324, -0.00525845400989, 1555562691.19
149.1370527, -35.3044778, 578947, [0.5300890803337097, 0.14188051223754883, -0.06117609888315201, -0.8337463736534119], -0.104453906417, 0.000394566915929, -0.00189672876149, 1555562691.21
149.1370527, -35.3044778, 578947, [0.5299535989761353, 0.14175646007061005, -0.061060093343257904, -0.8338621258735657], 0.0431622825563, -0.00895661767572, -0.00726130930707, 1555562691.22
149.1370527, -35.3044778, 578947, [0.5297505259513855, 0.14190416038036346, -0.06141148880124092, -0.8339402675628662], -0.0102308569476, -0.00621136976406, -0.0118218287826, 1555562691.24
149.1370527, -35.3044778, 578947, [0.5296432375907898, 0.14171472191810608, -0.06113675981760025, -0.8340608477592468], -0.0030705453828, 0.00231438968331, -0.00656298780814, 1555562691.28
149.1370527, -35.3044778, 578947, [0.5293773412704468, 0.1418740600347519, -0.06155475229024887, -0.8341716527938843], -0.0398489609361, 0.00570556195453, -0.00231060758233, 1555562691.28
149.1370527, -35.3044778, 578947, [0.5292450189590454, 0.14171701669692993, -0.06135950982570648, -0.834296703338623], -0.0187986250967, -0.0053703468293, -0.0109917046502, 1555562691.28
149.1370527, -35.3044778, 578947, [0.5290221571922302, 0.14183412492275238, -0.061703160405159, -0.834392786026001], 0.0471984632313, -0.0126551035792, -0.0103615634143, 1555562691.28
149.1370527, -35.3044778, 578947, [0.528872549533844, 0.14170071482658386, -0.06161413714289665, -0.8345169425010681], -0.0875055789948, -0.00265408144332, -0.0119131663814, 1555562691.3
149.1370496, -35.3044789, 578969, [0.5285964608192444, 0.141753152012825, -0.061894286423921585, -0.8346622586250305], 0.0576717481017, -0.00749881751835, -0.0108867194504, 1555562691.31
149.1370496, -35.3044789, 578969, [0.5284354090690613, 0.14165125787258148, -0.06184868514537811, -0.8347848057746887], -0.0306721348315, -0.00537830358371, -0.00709929782897, 1555562691.37
149.1370496, -35.3044789, 578969, [0.5282559394836426, 0.1415787935256958, -0.0618702694773674, -0.8349090814590454], -0.0345577672124, -0.0076437885873, -0.0107669960707, 1555562691.37
149.1370496, -35.3044789, 578969, [0.5280556082725525, 0.14153015613555908, -0.061935119330883026, -0.8350391983985901], 0.0277140215039, -0.0121667087078, -0.0136019829661, 1555562691.37
149.1370496, -35.3044789, 578969, [0.5277948975563049, 0.1414629966020584, -0.06204589083790779, -0.8352071642875671], -0.020975459367, -0.00244228960946, -0.0159985627979, 1555562691.37
149.1370496, -35.3044789, 578969, [0.5275988578796387, 0.1414147913455963, -0.062146250158548355, -0.8353317975997925], 0.00620858930051, -0.0112250670791, -0.0140186343342, 1555562691.37
149.1370496, -35.3044789, 578969, [0.5274317264556885, 0.14126887917518616, -0.06202796474099159, -0.8354707360267639], -0.0136352404952, -0.00808887556195, -0.0120700728148, 1555562691.39
149.1370496, -35.3044789, 578969, [0.5272100567817688, 0.14134995639324188, -0.0623617060482502, -0.8355722427368164], 0.0233187768608, -0.0147894266993, -0.0126931937411, 1555562691.4
149.1370496, -35.3044789, 578969, [0.5270388126373291, 0.14109064638614655, -0.062071193009614944, -0.835745632648468], 0.0154054909945, -0.00190972909331, -0.0119162779301, 1555562691.46
149.1370496, -35.3044789, 578969, [0.5268039107322693, 0.1412731111049652, -0.06253267079591751, -0.8358285427093506], 0.0761090070009, -0.00829299539328, -0.0089385388419, 1555562691.46
149.1370496, -35.3044789, 578969, [0.5266880393028259, 0.14106157422065735, -0.06231970712542534, -0.8359531164169312], -0.106723703444, -0.00170736666769, -0.00701260427013, 1555562691.46
149.1370496, -35.3044789, 578969, [0.5265079140663147, 0.14099235832691193, -0.06233729049563408, -0.8360769152641296], 0.0850723981857, -0.0162320621312, -0.0157369617373, 1555562691.46
149.1370496, -35.3044789, 578969, [0.5262636542320251, 0.14099398255348206, -0.06251802295446396, -0.8362169861793518], -0.118080385029, 0.00105715449899, -0.00586225092411, 1555562691.46
149.1370496, -35.3044789, 578969, [0.5261493921279907, 0.14074313640594482, -0.06219295412302017, -0.8363553285598755], 0.0319436714053, -0.0115385400131, -0.0117218224332, 1555562691.48
149.1370496, -35.3044789, 578969, [0.5258843302726746, 0.14101849496364594, -0.06288599222898483, -0.8364238739013672], 0.0888028219342, -0.0193650126457, -0.00712676066905, 1555562691.5
149.1370496, -35.3044789, 578969, [0.525779664516449, 0.14058524370193481, -0.06231984123587608, -0.8366049528121948], -0.058823723346, -0.00105221150443, -0.00609488040209, 1555562691.55
149.1370464, -35.3044801, 578983, [0.5255454182624817, 0.1407613754272461, -0.06283479183912277, -0.8366841077804565], 0.0859693959355, -0.0156392753124, -0.00467109959573, 1555562691.55
149.1370464, -35.3044801, 578983, [0.5254514813423157, 0.14045684039592743, -0.062464918941259384, -0.8368219137191772], -0.112207882106, -0.0101808048785, -0.00523316208273, 1555562691.55
149.1370464, -35.3044801, 578983, [0.5252575874328613, 0.140472874045372, -0.06274233758449554, -0.8369200825691223], 0.0715254619718, -0.026455335319, -0.00607549399137, 1555562691.55
149.1370464, -35.3044801, 578983, [0.5250630378723145, 0.14026738703250885, -0.06263923645019531, -0.8370843529701233], -0.0297914259136, -0.011380713433, -0.00816629547626, 1555562691.55
149.1370464, -35.3044801, 578983, [0.5249052047729492, 0.14022110402584076, -0.06280229240655899, -0.8371789455413818], 0.0186685025692, -0.0156699791551, -0.00492241093889, 1555562691.57
149.1370464, -35.3044801, 578983, [0.524764895439148, 0.1400294154882431, -0.06271396577358246, -0.8373056054115295], -0.00829827971756, -0.0119602549821, -0.0084154997021, 1555562691.59
149.1370464, -35.3044801, 578983, [0.5245064496994019, 0.140080988407135, -0.06313090026378632, -0.8374274373054504], -0.020883737132, -0.0157213527709, -0.0029893075116, 1555562691.65
149.1370464, -35.3044801, 578983, [0.524401843547821, 0.13975803554058075, -0.06275486946105957, -0.8375753164291382], -0.0596400387585, -0.012740092352, -0.0136104179546, 1555562691.65
149.1370464, -35.3044801, 578983, [0.5241395831108093, 0.13990050554275513, -0.06326211988925934, -0.8376774787902832], 0.115459792316, -0.0197796933353, -0.0126141440123, 1555562691.65
149.1370464, -35.3044801, 578983, [0.5240079164505005, 0.1396714150905609, -0.0630297064781189, -0.837815523147583], -0.103122316301, -6.49304129183e-05, -0.0117277093232, 1555562691.65
149.1370464, -35.3044801, 578983, [0.5237346887588501, 0.1396101713180542, -0.06318366527557373, -0.8379849791526794], 0.0358822308481, -0.0121585326269, -0.014878379181, 1555562691.65
149.1370464, -35.3044801, 578983, [0.5235558152198792, 0.13951346278190613, -0.06315251439809799, -0.8381152153015137], -0.0335888229311, -0.0099136037752, -0.0143710626289, 1555562691.66
149.1370464, -35.3044801, 578983, [0.5233669281005859, 0.13945502042770386, -0.0632258877158165, -0.838237464427948], 0.011323897168, -0.00916486233473, -0.0149219445884, 1555562691.68
149.1370464, -35.3044801, 578983, [0.5231193900108337, 0.13935649394989014, -0.06317989528179169, -0.8384117484092712], 0.00992319919169, 0.000755930319428, -0.012103388086, 1555562691.74
149.1370464, -35.3044801, 578983, [0.5229187607765198, 0.13939343392848969, -0.06336773931980133, -0.8385165333747864], -0.00331782805733, -0.0035144132562, -0.00785100180656, 1555562691.74
149.1370431, -35.3044813, 579023, [0.5228012204170227, 0.13912004232406616, -0.06292793154716492, -0.8386682868003845], -0.0559659525752, 0.00690795155242, -0.0150608308613, 1555562691.74
149.1370431, -35.3044813, 579023, [0.5224996209144592, 0.13950490951538086, -0.06368187814950943, -0.8387355208396912], 0.128453016281, -0.00472790375352, -0.00768294697627, 1555562691.74
149.1370431, -35.3044813, 579023, [0.5224103927612305, 0.13903160393238068, -0.06291675567626953, -0.8389274477958679], -0.0791745260358, 0.00984600745142, -0.0139491464943, 1555562691.74
149.1370431, -35.3044813, 579023, [0.5221109986305237, 0.1394883543252945, -0.06383572518825531, -0.8389685750007629], 0.20850084722, -0.00693718437105, -0.000754105858505, 1555562691.75
149.1370431, -35.3044813, 579023, [0.5220514535903931, 0.13920170068740845, -0.06338558346033096, -0.8390872478485107], -0.189303144813, 0.0191523656249, -0.00765316514298, 1555562691.77
149.1370431, -35.3044813, 579023, [0.5218604207038879, 0.13928447663784027, -0.06363541632890701, -0.8391734957695007], 0.182356521487, -0.00861499644816, -0.00312502868474, 1555562691.83
149.1370431, -35.3044813, 579023, [0.5216759443283081, 0.13930177688598633, -0.06377708166837692, -0.8392746448516846], -0.0989262908697, 0.0104336421937, -0.00930067989975, 1555562691.83
149.1370431, -35.3044813, 579023, [0.5214915871620178, 0.13945849239826202, -0.06416865438222885, -0.8393332958221436], 0.156936019659, -0.00461343675852, -0.0026799463667, 1555562691.83
149.1370431, -35.3044813, 579023, [0.5213654637336731, 0.1394507735967636, -0.06424418836832047, -0.8394070267677307], -0.0962962210178, 0.00509944790974, -0.00688464054838, 1555562691.83
149.1370431, -35.3044813, 579023, [0.5212187170982361, 0.13944518566131592, -0.06433462351560593, -0.8394922614097595], 0.136933028698, -0.0133315809071, -0.00621719285846, 1555562691.83
149.1370431, -35.3044813, 579023, [0.5210214257240295, 0.1394931674003601, -0.06452474743127823, -0.8395920395851135], -0.147653251886, 0.0123508758843, -0.00628562830389, 1555562691.84
149.1370431, -35.3044813, 579023, [0.5208839178085327, 0.13940739631652832, -0.06449207663536072, -0.8396942019462585], 0.076514929533, -0.00427704956383, -0.0100285876542, 1555562691.86
149.1370431, -35.3044813, 579023, [0.5206865072250366, 0.13955619931221008, -0.06488709896802902, -0.83976149559021], 0.0186727773398, -0.00450663408265, -0.00619779666886, 1555562691.92
149.1370431, -35.3044813, 579023, [0.5205528736114502, 0.13932880759239197, -0.06461656838655472, -0.839902937412262], 0.00346108851954, -0.00163423269987, -0.00908129196614, 1555562691.92
149.1370431, -35.3044813, 579023, [0.5203400254249573, 0.13950565457344055, -0.06501451134681702, -0.8399747014045715], 0.073731943965, -0.000848044175655, -0.00356727465987, 1555562691.92
149.1370393, -35.3044823, 579030, [0.5202756524085999, 0.13922074437141418, -0.06459755450487137, -0.8400941491127014], -0.14723341167, 0.00932002998888, -0.0129948500544, 1555562691.92
149.1370393, -35.3044823, 579030, [0.5200716257095337, 0.1393308937549591, -0.06488121300935745, -0.8401802778244019], 0.146359175444, -0.00865557044744, -0.0124551784247, 1555562691.92
149.1370393, -35.3044823, 579030, [0.5199306011199951, 0.1391567587852478, -0.06462862342596054, -0.8403159379959106], -0.132946580648, 0.0154454447329, -0.011448174715, 1555562691.93
149.1370393, -35.3044823, 579030, [0.5197178721427917, 0.13931232690811157, -0.06496572494506836, -0.8403956294059753], 0.143188476562, -0.000855861231685, -0.00460670888424, 1555562691.95
149.1370393, -35.3044823, 579030, [0.5195990204811096, 0.13919280469417572, -0.06479982286691666, -0.8405018448829651], -0.144122317433, 0.00589851243421, -0.0141339097172, 1555562692.01
149.1370393, -35.3044823, 579030, [0.5194312930107117, 0.1391974836587906, -0.06486308574676514, -0.8405998349189758], 0.108491167426, -0.0119941374287, -0.0116891395301, 1555562692.01
149.1370393, -35.3044823, 579030, [0.5192143321037292, 0.1392296403646469, -0.06489833444356918, -0.840725839138031], -0.100105933845, 0.0210233125836, -0.015724055469, 1555562692.01
149.1370393, -35.3044823, 579030, [0.5190380215644836, 0.13926814496517181, -0.06496504694223404, -0.8408230543136597], 0.0828006342053, 0.0096168294549, -0.0122320931405, 1555562692.01
149.1370393, -35.3044823, 579030, [0.51883864402771, 0.13936695456504822, -0.06513721495866776, -0.8409165143966675], -0.0184902176261, 0.0104817524552, -0.0155925471336, 1555562692.01
149.1370393, -35.3044823, 579030, [0.518668532371521, 0.139354407787323, -0.06506872922182083, -0.8410288095474243], 0.02830773592, 0.00789189711213, -0.0110128568485, 1555562692.02
149.1370393, -35.3044823, 579030, [0.5184265971183777, 0.13937614858150482, -0.06512506306171417, -0.8411698937416077], -0.0674181431532, 0.00978285539895, -0.0182656161487, 1555562692.04
149.1370393, -35.3044823, 579030, [0.5182183980941772, 0.13941317796707153, -0.06518063694238663, -0.8412879109382629], 0.0925374850631, 0.00405690167099, -0.0162016116083, 1555562692.1
149.1370393, -35.3044823, 579030, [0.5179836750030518, 0.1395813673734665, -0.06549887359142303, -0.8413797616958618], 0.0191689487547, 0.00504410732538, -0.0159101970494, 1555562692.1
149.1370393, -35.3044823, 579030, [0.5177908539772034, 0.1393793225288391, -0.06516695767641068, -0.8415578007698059], 0.0351741053164, -0.0091972053051, -0.0154961496592, 1555562692.1
149.1370393, -35.3044823, 579030, [0.5175393223762512, 0.1395496428012848, -0.0655304417014122, -0.8416559100151062], -0.00814215652645, -0.00518312770873, -0.0166870094836, 1555562692.1
149.1370393, -35.3044823, 579030, [0.5174169540405273, 0.13926123082637787, -0.06503123790025711, -0.8418176174163818], -0.0465261824429, 0.00378151517361, -0.0164270084351, 1555562692.1
149.1370354, -35.3044833, 579078, [0.5171597003936768, 0.13940021395683289, -0.06540470570325851, -0.8419237732887268], 0.0515980124474, -0.0112623870373, -0.0167992040515, 1555562692.12
149.1370354, -35.3044833, 579078, [0.5169549584388733, 0.1391642689704895, -0.06513605266809464, -0.8421093821525574], -0.0185065884143, -0.01225117594, -0.0151847302914, 1555562692.13
149.1370354, -35.3044833, 579078, [0.5167747139930725, 0.13910971581935883, -0.06511928886175156, -0.8422303795814514], -0.0253214500844, -0.00620265072212, -0.0150044830516, 1555562692.19
149.1370354, -35.3044833, 579078, [0.5165835618972778, 0.1390722095966339, -0.06517291069030762, -0.842349648475647], 0.0143579794094, -0.0132288467139, -0.0151351653039, 1555562692.19
149.1370354, -35.3044833, 579078, [0.5164152979850769, 0.1389515995979309, -0.06505906581878662, -0.8424815535545349], -0.0565970055759, -0.00751326978207, -0.0149585194886, 1555562692.19
149.1370354, -35.3044833, 579078, [0.5161808729171753, 0.13894540071487427, -0.06520579755306244, -0.8426147699356079], 0.0114573054016, -0.00545664597303, -0.0130300913006, 1555562692.19
149.1370354, -35.3044833, 579078, [0.5160565972328186, 0.13876990973949432, -0.0649588331580162, -0.842738926410675], -0.033396743238, 0.00821808725595, -0.0101873613894, 1555562692.19
149.1370354, -35.3044833, 579078, [0.5158640146255493, 0.13885226845741272, -0.0652305856347084, -0.8428223133087158], 0.0502196885645, -0.00195771502331, -0.00799116399139, 1555562692.21
149.1370354, -35.3044833, 579078, [0.5157171487808228, 0.1387495994567871, -0.06516151875257492, -0.8429343700408936], -0.0273318663239, -0.00272614951245, -0.00529207009822, 1555562692.22
149.1370354, -35.3044833, 579078, [0.5155301094055176, 0.13858379423618317, -0.06495694071054459, -0.8430918455123901], -0.0444137379527, 0.00218727672473, -0.0160565152764, 1555562692.28
149.1370354, -35.3044833, 579078, [0.5153341889381409, 0.13861452043056488, -0.06512252986431122, -0.843193769454956], 0.0304351169616, -0.00919516384602, -0.00855960790068, 1555562692.28
149.1370354, -35.3044833, 579078, [0.5152344703674316, 0.1383155882358551, -0.06468462198972702, -0.8433374762535095], -0.121359243989, 0.00279576377943, -0.0148964030668, 1555562692.28
149.1370354, -35.3044833, 579078, [0.5149683356285095, 0.13835954666137695, -0.06495639681816101, -0.8434719443321228], 0.0183840095997, -0.0126969944686, -0.0124289952219, 1555562692.28
149.1370354, -35.3044833, 579078, [0.5148764252662659, 0.13798855245113373, -0.06438980251550674, -0.8436323404312134], -0.12672200799, -0.00077565992251, -0.0171829108149, 1555562692.28
149.1370354, -35.3044833, 579078, [0.5146672129631042, 0.1380237489938736, -0.06458929181098938, -0.8437389135360718], 0.0368204414845, -0.0098716923967, -0.0148256216198, 1555562692.3
149.1370314, -35.3044845, 579064, [0.5145122408866882, 0.1378316432237625, -0.06436759978532791, -0.8438817262649536], -0.0749130621552, -0.00218196911737, -0.0166870951653, 1555562692.31
149.1370314, -35.3044845, 579064, [0.5142845511436462, 0.13768227398395538, -0.06426432728767395, -0.8440528512001038], -0.00696438457817, -0.00737662706524, -0.0144056398422, 1555562692.37
149.1370314, -35.3044845, 579064, [0.5140813589096069, 0.13768534362316132, -0.06444967538118362, -0.8441619873046875], 0.0354101285338, -0.0158471595496, -0.0123800430447, 1555562692.37
149.1370314, -35.3044845, 579064, [0.5139407515525818, 0.13741616904735565, -0.06409871578216553, -0.8443182110786438], -0.100201033056, 0.000214077532291, -0.0202489644289, 1555562692.37
149.1370314, -35.3044845, 579064, [0.5136064887046814, 0.1374981552362442, -0.06448376178741455, -0.8444788455963135], 0.0198066327721, -0.00768680218607, -0.0137526728213, 1555562692.37
149.1370314, -35.3044845, 579064, [0.5134837031364441, 0.13710379600524902, -0.06394104659557343, -0.8446588516235352], -0.09028788656, -0.000994299538434, -0.0230540595949, 1555562692.37
149.1370314, -35.3044845, 579064, [0.5132212042808533, 0.13714680075645447, -0.06421670317649841, -0.844790518283844], 0.0581794753671, -0.004944590386, -0.0203500986099, 1555562692.39
149.1370314, -35.3044845, 579064, [0.5129625201225281, 0.13685552775859833, -0.06389196962118149, -0.8450195789337158], -0.0493416674435, -0.00254814187065, -0.0243627130985, 1555562692.41
149.1370314, -35.3044845, 579064, [0.512771487236023, 0.13657619059085846, -0.06355031579732895, -0.8452063798904419], -0.0865397676826, -0.00010939873755, -0.0296045877039, 1555562692.47
149.1370314, -35.3044845, 579064, [0.5125367045402527, 0.13647043704986572, -0.06347896158695221, -0.8453711867332458], 0.0163173079491, -0.00610053772107, -0.029152341187, 1555562692.47
149.1370314, -35.3044845, 579064, [0.51236492395401, 0.1362360417842865, -0.0630948394536972, -0.8455418348312378], -0.0920843109488, 0.0113554224372, -0.0241487473249, 1555562692.47
149.1370314, -35.3044845, 579064, [0.5120785236358643, 0.1362137347459793, -0.06321238726377487, -0.8457102179527283], 0.0107156699523, -0.00534366630018, -0.0157544482499, 1555562692.47
149.1370314, -35.3044845, 579064, [0.5119516849517822, 0.13586825132369995, -0.06263894587755203, -0.845885157585144], -0.105893306434, 0.00357205001637, -0.0226482227445, 1555562692.47
149.1370314, -35.3044845, 579064, [0.5117172598838806, 0.13600820302963257, -0.0629764273762703, -0.8459795117378235], 0.0944295153022, -0.00931595265865, -0.0110479705036, 1555562692.48
149.1370314, -35.3044845, 579064, [0.5115603804588318, 0.1357588917016983, -0.06255859136581421, -0.8461453914642334], -0.0199860204011, 0.00426011392847, -0.00939024984837, 1555562692.5
149.1370272, -35.3044859, 579108, [0.5113739967346191, 0.135833278298378, -0.06277532875537872, -0.8462300300598145], -0.0255837701261, 0.00163405202329, -0.0099651478231, 1555562692.56
149.1370272, -35.3044859, 579108, [0.5112358927726746, 0.13573190569877625, -0.06265169382095337, -0.8463389277458191], 0.0340419411659, -0.00671996828169, -0.00938366539776, 1555562692.56
149.1370272, -35.3044859, 579108, [0.511074960231781, 0.1357363909482956, -0.06270961463451385, -0.8464311361312866], -0.0532780736685, 0.000941230449826, -0.00782350450754, 1555562692.56
149.1370272, -35.3044859, 579108, [0.510943591594696, 0.1356508731842041, -0.0625867247581482, -0.8465332388877869], 0.0239262972027, 0.0021710046567, -0.00110430642962, 1555562692.56
149.1370272, -35.3044859, 579108, [0.5107570290565491, 0.13550275564193726, -0.06232870742678642, -0.8466885089874268], -0.039768550545, 0.00179164623842, -0.0135816466063, 1555562692.56
149.1370272, -35.3044859, 579108, [0.5105998516082764, 0.13552013039588928, -0.06233926862478256, -0.8467797636985779], -0.0142422979698, 0.000162561424077, -0.0111032733694, 1555562692.57
149.1370272, -35.3044859, 579108, [0.5104925632476807, 0.1353461742401123, -0.06188415735960007, -0.8469055891036987], -0.0641773641109, 0.0122683495283, -0.0151370111853, 1555562692.59
149.1370272, -35.3044859, 579108, [0.5102660655975342, 0.1354658007621765, -0.06194646283984184, -0.8470184206962585], -0.0530842654407, 0.013790066354, -0.0125616108999, 1555562692.65
149.1370272, -35.3044859, 579108, [0.5101820230484009, 0.13523553311824799, -0.06129956245422363, -0.8471529483795166], -0.101396746933, 0.031393583864, -0.0182757731527, 1555562692.65
149.1370272, -35.3044859, 579108, [0.509951651096344, 0.1355963796377182, -0.06172172725200653, -0.8472033143043518], 0.077327132225, 0.0280957203358, -0.00957001838833, 1555562692.65
149.1370272, -35.3044859, 579108, [0.5098783373832703, 0.13539555668830872, -0.06101670488715172, -0.847330629825592], -0.152909442782, 0.0465588867664, -0.0190231092274, 1555562692.65
149.1370272, -35.3044859, 579108, [0.5095832347869873, 0.13588662445545197, -0.06148470193147659, -0.8473955988883972], 0.090275965631, 0.0300605893135, -0.00509260362014, 1555562692.65
149.1370272, -35.3044859, 579108, [0.5094932317733765, 0.13580070436000824, -0.06091360002756119, -0.8475047945976257], -0.0969094708562, 0.0378106310964, -0.0111819421872, 1555562692.66
149.1370272, -35.3044859, 579108, [0.5092663168907166, 0.13616707921028137, -0.06123662739992142, -0.8475590944290161], 0.127607926726, 0.0219368115067, -0.0124616073444, 1555562692.68
149.1370272, -35.3044859, 579108, [0.5091028213500977, 0.13632726669311523, -0.06117940694093704, -0.8476356863975525], -0.0817102268338, 0.0361717268825, -0.0155013296753, 1555562692.74
149.1370272, -35.3044859, 579108, [0.5088315010070801, 0.13671272993087769, -0.061447624117136, -0.8477171063423157], 0.195229738951, 0.0202037934214, -0.0126797668636, 1555562692.74
149.1370227, -35.3044873, 579119, [0.5086736083030701, 0.1368456929922104, -0.061461154371500015, -0.8477895259857178], -0.129946410656, 0.0366687402129, -0.0125668896362, 1555562692.74
149.1370227, -35.3044873, 579119, [0.5085257887840271, 0.13687047362327576, -0.06127050518989563, -0.8478879928588867], 0.131598800421, 0.0141195133328, -0.0125654004514, 1555562692.74
149.1370227, -35.3044873, 579119, [0.5082685947418213, 0.13730858266353607, -0.06204159930348396, -0.8479152917861938], -0.0115400245413, 0.0110768824816, -0.00984665285796, 1555562692.74
149.1370227, -35.3044873, 579119, [0.508098304271698, 0.1372407227754593, -0.0617423839867115, -0.8480501770973206], 0.172885999084, 0.00860528834164, -0.00438614375889, 1555562692.75
149.1370227, -35.3044873, 579119, [0.5079082250595093, 0.1374306082725525, -0.06210913136601448, -0.8481065630912781], -0.0751223936677, 0.0105140656233, -0.00658399844542, 1555562692.77
149.1370227, -35.3044873, 579119, [0.5077300667762756, 0.13740600645542145, -0.0621517151594162, -0.8482140302658081], 0.169091150165, -0.0127309374511, -0.00285305501893, 1555562692.79
149.1370227, -35.3044873, 579119, [0.5076049566268921, 0.13740526139736176, -0.062231432646512985, -0.8482831716537476], -0.0694733187556, 0.00548903178424, -0.00703214202076, 1555562692.83
149.1370227, -35.3044873, 579119, [0.5074394941329956, 0.13752280175685883, -0.06258893013000488, -0.8483367562294006], 0.131626650691, -0.00969154573977, 0.00062148552388, 1555562692.83
149.1370227, -35.3044873, 579119, [0.5073719024658203, 0.13737866282463074, -0.06250464171171188, -0.8484069108963013], -0.137677758932, -0.00209143059328, -0.000223197042942, 1555562692.83
149.1370227, -35.3044873, 579119, [0.5071530938148499, 0.13757674396038055, -0.0631089061498642, -0.848460853099823], 0.22236174345, -0.0205637682229, 0.00575885176659, 1555562692.83
149.1370227, -35.3044873, 579119, [0.5071349740028381, 0.1373548060655594, -0.06294247508049011, -0.8485199809074402], -0.174925580621, 0.000963433645666, 0.00415682885796, 1555562692.85
149.1370227, -35.3044873, 579119, [0.5070266127586365, 0.1372806876897812, -0.06308837980031967, -0.8485859036445618], 0.16375015676, -0.0218022875488, 0.00514057185501, 1555562692.86
149.1370227, -35.3044873, 579119, [0.5068996548652649, 0.13722199201583862, -0.063408762216568, -0.8486472368240356], -0.195265308022, -0.0165113247931, 0.00463948771358, 1555562692.92
149.1370227, -35.3044873, 579119, [0.5068507790565491, 0.13692344725131989, -0.06316404789686203, -0.8487430214881897], 0.109652630985, -0.0352088734508, 0.00313896220177, 1555562692.92
149.1370227, -35.3044873, 579119, [0.5067005753517151, 0.13704441487789154, -0.06376755237579346, -0.8487679958343506], -0.0690764114261, -0.0203699041158, 0.00574345327914, 1555562692.92
149.137018, -35.3044889, 579078, [0.5067252516746521, 0.1364518404006958, -0.06301793456077576, -0.8489047884941101], -0.075135499239, -0.018091250211, 0.00234148744494, 1555562692.92
149.137018, -35.3044889, 579078, [0.5065563917160034, 0.13636566698551178, -0.06347177922725677, -0.848985493183136], -0.103849314153, -0.0256131775677, 0.00541903357953, 1555562692.92
149.137018, -35.3044889, 579078, [0.5065556764602661, 0.13575659692287445, -0.06276601552963257, -0.8491359949111938], -0.0683700442314, -0.0249071400613, 0.00245114136487, 1555562692.94
149.137018, -35.3044889, 579078, [0.5063762068748474, 0.1357380896806717, -0.06324628740549088, -0.8492103219032288], 0.0068209124729, -0.0280865523964, 0.00555680785328, 1555562692.95
149.137018, -35.3044889, 579078, [0.5063682794570923, 0.1350797563791275, -0.06256335228681564, -0.8493707180023193], -0.144906744361, -0.0248874407262, -0.00150633230805, 1555562693.01
149.137018, -35.3044889, 579078, [0.5062053799629211, 0.13484348356723785, -0.06287448108196259, -0.8494822978973389], -0.0414744205773, -0.0347532257438, 0.0040440838784, 1555562693.01
149.137018, -35.3044889, 579078, [0.5061336755752563, 0.1344475895166397, -0.06268619000911713, -0.849601686000824], 0.00457777874544, -0.0309072062373, 0.00337089132518, 1555562693.01
149.137018, -35.3044889, 579078, [0.5060000419616699, 0.13428805768489838, -0.06303004175424576, -0.84968101978302], -0.0367465279996, -0.0339847207069, 0.00881086848676, 1555562693.01
149.137018, -35.3044889, 579078, [0.5059089064598083, 0.1338542103767395, -0.06288419663906097, -0.8498145937919617], -0.0235379952937, -0.0468566529453, 0.0016380418092, 1555562693.01
149.137018, -35.3044889, 579078, [0.5057175159454346, 0.13362497091293335, -0.06343723833560944, -0.8499234318733215], -0.0884363874793, -0.0539847649634, 0.00194701552391, 1555562693.03
149.137018, -35.3044889, 579078, [0.5056412220001221, 0.13308928906917572, -0.06308243423700333, -0.8500792384147644], 0.040539663285, -0.050016656518, 0.00160063803196, 1555562693.04
149.137018, -35.3044889, 579078, [0.5054065585136414, 0.13319285213947296, -0.06409107893705368, -0.8501272797584534], 0.0853382796049, -0.0609303340316, 0.00986934639513, 1555562693.1
149.137018, -35.3044889, 579078, [0.5053730607032776, 0.13212287425994873, -0.0631900355219841, -0.8503814935684204], -0.0255677122623, -0.0616743303835, -0.00663327192888, 1555562693.1
149.137018, -35.3044889, 579078, [0.5051313638687134, 0.13209986686706543, -0.06403472274541855, -0.8504655361175537], 0.00308215990663, -0.0670960694551, -0.00197807559744, 1555562693.1
149.137018, -35.3044889, 579078, [0.5050995349884033, 0.1312033087015152, -0.06319708377122879, -0.8506858348846436], -0.119299381971, -0.0657038986683, -0.0114958826452, 1555562693.1
149.1370132, -35.3044904, 579023, [0.5048995018005371, 0.13073237240314484, -0.06348219513893127, -0.850855827331543], -0.165804311633, -0.0580494627357, -0.00216576037928, 1555562693.1
149.1370132, -35.3044904, 579023, [0.5048111081123352, 0.13012667000293732, -0.06314363330602646, -0.851026177406311], 0.0594268515706, -0.0672735124826, 0.00227159447968, 1555562693.12
149.1370132, -35.3044904, 579023, [0.5047086477279663, 0.12970289587974548, -0.06316009908914566, -0.8511505126953125], -0.195964798331, -0.0455188266933, -0.00363191915676, 1555562693.14
149.1370132, -35.3044904, 579023, [0.5046348571777344, 0.12881748378276825, -0.06254513561725616, -0.851374089717865], 0.116053298116, -0.0699227452278, 0.000893571414053, 1555562693.15
149.1370132, -35.3044904, 579023, [0.504578709602356, 0.12830960750579834, -0.06228827312588692, -0.8515029549598694], -0.282948762178, -0.0461350381374, -0.00536427926272, 1555562693.21
149.1370132, -35.3044904, 579023, [0.5044891238212585, 0.127547949552536, -0.06172298267483711, -0.8517115116119385], 0.117161944509, -0.0612016618252, -0.00212573027238, 1555562693.21
149.1370132, -35.3044904, 579023, [0.5044715404510498, 0.12687845528125763, -0.06103430688381195, -0.8518716096878052], -0.331387370825, -0.0234986636788, -0.00903098843992, 1555562693.21
149.1370132, -35.3044904, 579023, [0.50439453125, 0.12637987732887268, -0.060605503618717194, -0.8520218729972839], 0.0472126305103, -0.047901045531, -0.00433700717986, 1555562693.21
149.1370132, -35.3044904, 579023, [0.504342257976532, 0.12583141028881073, -0.060003869235515594, -0.8521766066551208], -0.284837394953, -0.0150604341179, -0.0106756407768, 1555562693.21
149.1370132, -35.3044904, 579023, [0.5042052865028381, 0.12534645199775696, -0.0595841184258461, -0.8523586392402649], 0.0824989154935, -0.0342895165086, -0.00714912638068, 1555562693.23
149.1370132, -35.3044904, 579023, [0.5041144490242004, 0.12491782754659653, -0.059127796441316605, -0.8525069952011108], -0.178613200784, -0.0141214840114, -0.00818265415728, 1555562693.24
149.1370132, -35.3044904, 579023, [0.5040291547775269, 0.12455633282661438, -0.058678317815065384, -0.8526414036750793], -0.017367452383, -0.0126932011917, -0.0101438770071, 1555562693.26
149.1370132, -35.3044904, 579023, [0.503784716129303, 0.1243508905172348, -0.05871544033288956, -0.8528131246566772], -0.0620094388723, -0.0230835676193, -0.0167139451951, 1555562693.32
149.1370132, -35.3044904, 579023, [0.5037051439285278, 0.1239057183265686, -0.058090921491384506, -0.8529676795005798], -0.109436362982, -0.012200333178, -0.0166460480541, 1555562693.32
149.1370132, -35.3044904, 579023, [0.5034909248352051, 0.12384160608053207, -0.05830250307917595, -0.8530890941619873], 0.0385347642004, -0.0349275916815, -0.0154963433743, 1555562693.32
149.1370132, -35.3044904, 579023, [0.5033202767372131, 0.1233365461230278, -0.0577886588871479, -0.8532978892326355], -0.0616768971086, -0.023007646203, -0.0162182319909, 1555562693.32
149.1370085, -35.3044918, 579032, [0.5031218528747559, 0.12323616445064545, -0.05799637734889984, -0.8534154295921326], -0.0485193245113, -0.0214299205691, -0.0158973168582, 1555562693.32
149.1370085, -35.3044918, 579032, [0.5030074715614319, 0.12266089767217636, -0.057357851415872574, -0.8536087274551392], -0.112412698567, -0.0237871743739, -0.0228210892528, 1555562693.33
149.1370085, -35.3044918, 579032, [0.5027745962142944, 0.12259480357170105, -0.05772051215171814, -0.853731095790863], -0.0305695831776, -0.0322608537972, -0.0186712965369, 1555562693.35
149.1370085, -35.3044918, 579032, [0.5026147365570068, 0.12197422981262207, -0.057051561772823334, -0.8539589643478394], -0.00548883294687, -0.0162691771984, -0.0143594965339, 1555562693.41
149.1370085, -35.3044918, 579032, [0.5023900270462036, 0.1219840943813324, -0.05759253352880478, -0.8540534377098083], 0.00529155321419, -0.018553506583, -0.00839404202998, 1555562693.41
149.1370085, -35.3044918, 579032, [0.5023295283317566, 0.12142175436019897, -0.05696212872862816, -0.8542114496231079], -0.123971678317, -0.00826924759895, -0.00904696714133, 1555562693.41
149.1370085, -35.3044918, 579032, [0.5020856857299805, 0.12156925350427628, -0.05760892853140831, -0.8542904853820801], -0.0111049953848, -0.00379828573205, -0.00220933742821, 1555562693.41
149.1370085, -35.3044918, 579032, [0.5020750761032104, 0.12108007818460464, -0.05677608773112297, -0.854421854019165], -0.0485662184656, 0.0164302550256, -0.00602279882878, 1555562693.41
149.1370085, -35.3044918, 579032, [0.5018751621246338, 0.12148743122816086, -0.05762263014912605, -0.8544248342514038], 0.0498436950147, 0.00601895432919, 0.00510618370026, 1555562693.42
149.1370085, -35.3044918, 579032, [0.5018539428710938, 0.12124882638454437, -0.056981150060892105, -0.8545142412185669], -0.0520532801747, 0.0404619574547, 0.00342793669552, 1555562693.44
149.1370085, -35.3044918, 579032, [0.5016371011734009, 0.12181541323661804, -0.057600319385528564, -0.8545194864273071], -0.0489860549569, 0.0439748503268, -0.00217599887401, 1555562693.5
149.1370085, -35.3044918, 579032, [0.5015574097633362, 0.12188564985990524, -0.057245660573244095, -0.8545799851417542], 0.109634995461, 0.0445514656603, 0.000180993229151, 1555562693.5
149.1370085, -35.3044918, 579032, [0.5013753771781921, 0.12238214910030365, -0.05761680752038956, -0.8545910120010376], -0.0114013329148, 0.0471401512623, -0.0054690358229, 1555562693.5
149.1370085, -35.3044918, 579032, [0.5012919902801514, 0.12242259830236435, -0.05697626993060112, -0.8546770215034485], -0.0190246421844, 0.0601417273283, -0.0105195660144, 1555562693.5
149.1370085, -35.3044918, 579032, [0.5010147094726562, 0.12306191027164459, -0.057239316403865814, -0.8547302484512329], -0.0388093553483, 0.0669196546078, -0.01319219172, 1555562693.5
149.1370041, -35.3044934, 579046, [0.5009085536003113, 0.12317828834056854, -0.05668453127145767, -0.8548126816749573], -0.0235449038446, 0.0636765956879, -0.0166889838874, 1555562693.51
149.1370041, -35.3044934, 579046, [0.50068199634552, 0.12362223863601685, -0.056860875338315964, -0.854869544506073], 0.107861854136, 0.0541454702616, -0.0167222823948, 1555562693.53
149.1370041, -35.3044934, 579046, [0.5004698038101196, 0.12382541596889496, -0.05634879693388939, -0.8549984097480774], -0.141321927309, 0.0622385703027, -0.0222088471055, 1555562693.59
149.1370041, -35.3044934, 579046, [0.5002149939537048, 0.12415313720703125, -0.05639519914984703, -0.8550967574119568], 0.13140822947, 0.029424380511, -0.026210591197, 1555562693.59
149.1370041, -35.3044934, 579046, [0.5000200867652893, 0.12428081035614014, -0.05616602674126625, -0.8552073240280151], -0.165742725134, 0.0448576025665, -0.0275311470032, 1555562693.59
149.1370041, -35.3044934, 579046, [0.499817818403244, 0.12415122240781784, -0.055516161024570465, -0.8553868532180786], 0.021775316447, 0.0249997787178, -0.0342344120145, 1555562693.59
149.1370041, -35.3044934, 579046, [0.49946218729019165, 0.12437309324741364, -0.05555370822548866, -0.8555598855018616], -0.196618616581, 0.031651455909, -0.0304761808366, 1555562693.59
149.1370041, -35.3044934, 579046, [0.49928462505340576, 0.12398990988731384, -0.05464264005422592, -0.8557778000831604], 0.00327669479884, 0.00790123082697, -0.0316878035665, 1555562693.61
149.1370041, -35.3044934, 579046, [0.4989379346370697, 0.12434747815132141, -0.055335987359285355, -0.8558834791183472], 0.0341655127704, -0.00592957390472, -0.0191362947226, 1555562693.62
149.1370041, -35.3044934, 579046, [0.4988369643688202, 0.12352707982063293, -0.05382973700761795, -0.8561573028564453], -0.279494047165, 0.016300290823, -0.0394201055169, 1555562693.64
149.1370041, -35.3044934, 579046, [0.49839386343955994, 0.12375561892986298, -0.05463792383670807, -0.8563309907913208], 0.0673310607672, -0.0357212498784, -0.0163842197508, 1555562693.68
149.1370041, -35.3044934, 579046, [0.4982995092868805, 0.12290681898593903, -0.05342070385813713, -0.8565850257873535], -0.267680644989, -0.0207497943193, -0.0285519622266, 1555562693.68
149.1370041, -35.3044934, 579046, [0.4979919195175171, 0.12295596301555634, -0.054095957428216934, -0.8567144274711609], 0.211024656892, -0.0614104196429, -0.0106640290469, 1555562693.68
